{
  "tenantId": "pg.mcd",
  "moduleName": "egov-location",
  "TenantBoundaryLight": [
    {
      "hierarchyType": {
        "code": "REVENUE",
        "name": "REVENUE"
      },
      "boundary": {
        "id": 1,
        "boundaryNum": 1,
        "name": "Delhi",
        "localname": "MCD",
        "longitude": null,
        "latitude": null,
        "label": "City",
        "code": "pg.mcd",
        "children": [
          {
            "id": "2323ddf1-4228-45b4-887c-915d5e974bc2",
            "boundaryNum": 1,
            "name": "CENTRAL ZONE",
            "localname": "CENTRAL ZONE",
            "longitude": null,
            "latitude": null,
            "label": "Zone",
            "code": "CZ",
            "children": [
              {
                "id": "7f7c0226-302b-4682-9b82-79b5968bfcd8",
                "boundaryNum": 142,
                "name": "DARYA GANJ",
                "localname": "DARYA GANJ",
                "longitude": 77.2438,
                "latitude": 28.6401,
                "label": "Block",
                "code": "WARD142",
                "children": []
              },
              {
                "id": "f33357e9-c46c-483d-971f-d7818fc39009",
                "boundaryNum": 143,
                "name": "SIDHARTH NAGAR",
                "localname": "SIDHARTH NAGAR",
                "longitude": 77.267,
                "latitude": 28.5725,
                "label": "Block",
                "code": "WARD143",
                "children": []
              },
              {
                "id": "20740f2f-0023-4c2e-a52a-4784f647e029",
                "boundaryNum": 144,
                "name": "LAJPAT NAGAR",
                "localname": "LAJPAT NAGAR",
                "longitude": 77.243,
                "latitude": 28.573,
                "label": "Block",
                "code": "WARD144",
                "children": []
              },
              {
                "id": "f93aa22a-5191-4ba1-8fa9-57c0afbcba24",
                "boundaryNum": 145,
                "name": "ANDREWS GANJ",
                "localname": "ANDREWS GANJ",
                "longitude": 77.243,
                "latitude": 28.573,
                "label": "Block",
                "code": "WARD145",
                "children": []
              },
              {
                "id": "de22d3cb-1c66-463a-9ccc-e54fe0ff80cc",
                "boundaryNum": 146,
                "name": "AMAR COLONY",
                "localname": "AMAR COLONY",
                "longitude": 77.243,
                "latitude": 28.573,
                "label": "Block",
                "code": "WARD146",
                "children": []
              },
              {
                "id": "165a9d9b-0ebc-4f3f-ad02-8bd119c43730",
                "boundaryNum": 147,
                "name": "KOTLA MUBARAK PUR",
                "localname": "KOTLA MUBARAK PUR",
                "longitude": 77.2293,
                "latitude": 28.5824,
                "label": "Block",
                "code": "WARD147",
                "children": []
              },
              {
                "id": "f89f5e26-ba4c-42cd-8ce8-8f482c8d9cc0",
                "boundaryNum": 168,
                "name": "SANGAM VIHAR C",
                "localname": "SANGAM VIHAR C",
                "longitude": 77.2434546,
                "latitude": 28.49846727,
                "label": "Block",
                "code": "WARD168",
                "children": []
              },
              {
                "id": "f882f1f6-f88e-4b08-90ed-d5d5176da3da",
                "boundaryNum": 169,
                "name": "SANGAM VIHAR-B",
                "localname": "SANGAM VIHAR-B",
                "longitude": 77.2767,
                "latitude": 28.4947,
                "label": "Block",
                "code": "WARD169",
                "children": []
              },
              {
                "id": "a17e12e1-5c56-4d9f-b2e5-b0e2a1dd8f45",
                "boundaryNum": 170,
                "name": "TUGHLAKABAD EXTN.",
                "localname": "TUGHLAKABAD EXTN.",
                "longitude": 77.2694,
                "latitude": 28.5025,
                "label": "Block",
                "code": "WARD170",
                "children": []
              },
              {
                "id": "b7b9ccf1-229e-492a-a951-85fec5ad9d38",
                "boundaryNum": 174,
                "name": "SRINIWASPURI",
                "localname": "SRINIWASPURI",
                "longitude": 77.2552,
                "latitude": 28.5525,
                "label": "Block",
                "code": "WARD174",
                "children": []
              },
              {
                "id": "c1bda1f3-de3e-4022-b572-c2f46fee5418",
                "boundaryNum": 175,
                "name": "KALKAJI",
                "localname": "KALKAJI",
                "longitude": 77.257,
                "latitude": 28.538,
                "label": "Block",
                "code": "WARD175",
                "children": []
              },
              {
                "id": "fa5daa03-67e0-436d-94f1-664731de7db9",
                "boundaryNum": 176,
                "name": "GOVINDPURI",
                "localname": "GOVINDPURI",
                "longitude": 77.2602,
                "latitude": 28.5461,
                "label": "Block",
                "code": "WARD176",
                "children": []
              },
              {
                "id": "42e39893-0ba8-4d63-a49d-74b48b8ba8fc",
                "boundaryNum": 177,
                "name": "HARKESH NAGAR",
                "localname": "HARKESH NAGAR",
                "longitude": 77.2815,
                "latitude": 28.5445,
                "label": "Block",
                "code": "WARD177",
                "children": []
              },
              {
                "id": "aee9e5bd-045b-4b00-851a-a4a037223214",
                "boundaryNum": 178,
                "name": "TUGHLAKABAD",
                "localname": "TUGHLAKABAD",
                "longitude": 77.269,
                "latitude": 28.5021,
                "label": "Block",
                "code": "WARD178",
                "children": []
              },
              {
                "id": "00aabec6-c2b7-4a07-a45e-1a6d86174d5a",
                "boundaryNum": 179,
                "name": "PUL PEHLADPUR",
                "localname": "PUL PEHLADPUR",
                "longitude": 77.2928,
                "latitude": 28.4983,
                "label": "Block",
                "code": "WARD179",
                "children": []
              },
              {
                "id": "c1c098ca-3187-4175-8026-8e5ecac4d830",
                "boundaryNum": 180,
                "name": "BADARPUR",
                "localname": "BADARPUR",
                "longitude": 77.2921,
                "latitude": 28.4956,
                "label": "Block",
                "code": "WARD180",
                "children": []
              },
              {
                "id": "34bb02bf-7651-404e-808a-a8c401d3548c",
                "boundaryNum": 181,
                "name": "MOLARBAND",
                "localname": "MOLARBAND",
                "longitude": 77.2922,
                "latitude": 28.4977,
                "label": "Block",
                "code": "WARD181",
                "children": []
              },
              {
                "id": "276109ed-27a1-4999-8eee-2a342e31228a",
                "boundaryNum": 182,
                "name": "MEETHA PUR",
                "localname": "MEETHA PUR",
                "longitude": 77.2885,
                "latitude": 28.495,
                "label": "Block",
                "code": "WARD182",
                "children": []
              },
              {
                "id": "dfd8be70-d758-4ce7-8b2b-e7c84c351bb7",
                "boundaryNum": 183,
                "name": "HARI NAGAR EXTENSION",
                "localname": "HARI NAGAR EXTENSION",
                "longitude": 77.293,
                "latitude": 28.495,
                "label": "Block",
                "code": "WARD183",
                "children": []
              },
              {
                "id": "c227a841-5319-42d1-848a-dc1a3e25297d",
                "boundaryNum": 184,
                "name": "JAITPUR",
                "localname": "JAITPUR",
                "longitude": 77.29,
                "latitude": 28.497,
                "label": "Block",
                "code": "WARD184",
                "children": []
              },
              {
                "id": "eb169e24-c256-4b89-8bbe-b8140ad0fa2e",
                "boundaryNum": 185,
                "name": "MADANPUR KHADAR EAST",
                "localname": "MADANPUR KHADAR EAST",
                "longitude": 77.3037,
                "latitude": 28.5361,
                "label": "Block",
                "code": "WARD185",
                "children": []
              },
              {
                "id": "e396a682-374b-45e9-9d4f-775796354c9e",
                "boundaryNum": 186,
                "name": "MADANPUR KHADAR WEST",
                "localname": "MADANPUR KHADAR WEST",
                "longitude": 77.302,
                "latitude": 28.535,
                "label": "Block",
                "code": "WARD186",
                "children": []
              },
              {
                "id": "1da2dcdc-7f49-4389-b572-bc8b40f2a460",
                "boundaryNum": 187,
                "name": "SARITA VIHAR",
                "localname": "SARITA VIHAR",
                "longitude": 77.2919,
                "latitude": 28.5205,
                "label": "Block",
                "code": "WARD187",
                "children": []
              },
              {
                "id": "ad7f8f7f-96f4-4dda-bbca-34ceac292d0c",
                "boundaryNum": 188,
                "name": "ABUL FAZALENCLAVE",
                "localname": "ABUL FAZALENCLAVE",
                "longitude": 77.289,
                "latitude": 28.561,
                "label": "Block",
                "code": "WARD188",
                "children": []
              },
              {
                "id": "e2481bbc-395a-4460-8ba8-fba5ad1ae1c2",
                "boundaryNum": 189,
                "name": "ZAKIR NAGAR",
                "localname": "ZAKIR NAGAR",
                "longitude": 77.2809,
                "latitude": 28.5614,
                "label": "Block",
                "code": "WARD189",
                "children": []
              }
            ]
          },
          {
            "id": "1c5dbabd-e04a-44e1-ac27-1fea19fac28f",
            "boundaryNum": 2,
            "name": "City-SP Zone",
            "localname": "City-SP Zone",
            "longitude": null,
            "latitude": null,
            "label": "Zone",
            "code": "CSPZ",
            "children": [
              {
                "id": "633f15ca-6283-4203-a4e5-f81496d157e0",
                "boundaryNum": 70,
                "name": "SHASTRI NAGAR",
                "localname": "SHASTRI NAGAR",
                "longitude": 77.1673,
                "latitude": 28.6782,
                "label": "Block",
                "code": "WARD70",
                "children": []
              },
              {
                "id": "7a0896cf-f32f-4cd6-b290-0d200f57b21c",
                "boundaryNum": 71,
                "name": "KISHANGANJ",
                "localname": "KISHANGANJ",
                "longitude": 77.207,
                "latitude": 28.67,
                "label": "Block",
                "code": "WARD71",
                "children": []
              },
              {
                "id": "7e321eb3-63bf-4692-87e4-3ef8774601e7",
                "boundaryNum": 72,
                "name": "SADAR BAZAR",
                "localname": "SADAR BAZAR",
                "longitude": 77.2136,
                "latitude": 28.6651,
                "label": "Block",
                "code": "WARD72",
                "children": []
              },
              {
                "id": "5691d842-b593-4530-944b-550cdd28061b",
                "boundaryNum": 73,
                "name": "CIVIL LINE",
                "localname": "CIVIL LINE",
                "longitude": 77.2274,
                "latitude": 28.6823,
                "label": "Block",
                "code": "WARD73",
                "children": []
              },
              {
                "id": "6f0d3122-e361-46de-9b75-21673cc3306d",
                "boundaryNum": 74,
                "name": "CHANDNI CHOWK",
                "localname": "CHANDNI CHOWK",
                "longitude": 77.2301,
                "latitude": 28.6562,
                "label": "Block",
                "code": "WARD74",
                "children": []
              },
              {
                "id": "794096a6-dfd6-4fc1-8a14-e8af7be87957",
                "boundaryNum": 75,
                "name": "JAMA MASJID",
                "localname": "JAMA MASJID",
                "longitude": 77.2334,
                "latitude": 28.6507,
                "label": "Block",
                "code": "WARD75",
                "children": []
              },
              {
                "id": "0cd93922-aad5-4d91-b9f4-26ba444ef77b",
                "boundaryNum": 76,
                "name": "CHANDANI MAHAL",
                "localname": "CHANDANI MAHAL",
                "longitude": 77.2395,
                "latitude": 28.6501,
                "label": "Block",
                "code": "WARD76",
                "children": []
              },
              {
                "id": "ef312c40-0281-4dfc-99be-b9f67698a46b",
                "boundaryNum": 77,
                "name": "DELHI GATE",
                "localname": "DELHI GATE",
                "longitude": 77.2414,
                "latitude": 28.6403,
                "label": "Block",
                "code": "WARD77",
                "children": []
              },
              {
                "id": "638da154-7088-4b8a-aaab-3a623a8df41a",
                "boundaryNum": 78,
                "name": "BAZAR SITA RAM",
                "localname": "BAZAR SITA RAM",
                "longitude": 77.23,
                "latitude": 28.65,
                "label": "Block",
                "code": "WARD78",
                "children": []
              },
              {
                "id": "236da85a-c490-49af-92f1-263a152ccf07",
                "boundaryNum": 79,
                "name": "BALLIMARAN",
                "localname": "BALLIMARAN",
                "longitude": 77.2246,
                "latitude": 28.6574,
                "label": "Block",
                "code": "WARD79",
                "children": []
              },
              {
                "id": "bac4ba74-31e8-4b72-a0b1-25f5b0f25fbd",
                "boundaryNum": 80,
                "name": "RAM NAGAR",
                "localname": "RAM NAGAR",
                "longitude": 77.2101,
                "latitude": 28.6427,
                "label": "Block",
                "code": "WARD80",
                "children": []
              },
              {
                "id": "f453affc-76a0-4635-9682-db51cee7b813",
                "boundaryNum": 81,
                "name": "QURAISH NAGAR",
                "localname": "QURAISH NAGAR",
                "longitude": 77.2195,
                "latitude": 28.6621,
                "label": "Block",
                "code": "WARD81",
                "children": []
              }
            ]
          },
          {
            "id": "1c5dbabd-e04a-44e1-ac27-1fea19fac28f",
            "boundaryNum": 3,
            "name": "Civil Lines Zone",
            "localname": "Civil lines Zone",
            "longitude": null,
            "latitude": null,
            "label": "Zone",
            "code": "CLZ",
            "children": [
              {
                "id": "f36495e6-d7db-47aa-9325-1dd329abf939",
                "boundaryNum": 6,
                "name": "BURARI",
                "localname": "BURARI",
                "longitude": null,
                "latitude": null,
                "label": "Block",
                "code": "WARD006",
                "children": []
              },
              {
                "id": "75793ecb-07ad-40d6-9875-61bd8e1ec7ab",
                "boundaryNum": 7,
                "name": "KADIPUR",
                "localname": "KADIPUR",
                "longitude": null,
                "latitude": null,
                "label": "Block",
                "code": "WARD007",
                "children": []
              },
              {
                "id": "a2c2f338-79d1-4c08-8f7b-6e2d0b533687",
                "boundaryNum": 8,
                "name": "MUKUNDPUR",
                "localname": "MUKUNDPUR",
                "longitude": null,
                "latitude": null,
                "label": "Block",
                "code": "WARD008",
                "children": []
              },
              {
                "id": "32596d94-e5ab-4a08-95c4-b38bf3f21f38",
                "boundaryNum": 9,
                "name": "SANT NAGAR",
                "localname": "SANT NAGAR",
                "longitude": null,
                "latitude": null,
                "label": "Block",
                "code": "WARD009",
                "children": []
              },
              {
                "id": "7ce952bf-425d-4695-98f0-8fb70cdf82c5",
                "boundaryNum": 10,
                "name": "JHARODA",
                "localname": "JHARODA",
                "longitude": null,
                "latitude": null,
                "label": "Block",
                "code": "WARD010",
                "children": []
              },
              {
                "id": "503f6ee2-29c2-4995-8504-8a542b12d971",
                "boundaryNum": 11,
                "name": "TIMARPUR",
                "localname": "TIMARPUR",
                "longitude": null,
                "latitude": null,
                "label": "Block",
                "code": "WARD011",
                "children": []
              },
              {
                "id": "b47d79fb-f397-40a8-9a2d-9e1ea3a1c682",
                "boundaryNum": 12,
                "name": "MALKA GANJ",
                "localname": "MALKA GANJ",
                "longitude": null,
                "latitude": null,
                "label": "Block",
                "code": "WARD012",
                "children": []
              },
              {
                "id": "e2c0545a-6593-445a-8297-4da624a76625",
                "boundaryNum": 13,
                "name": "MUKHERJEE NAGAR",
                "localname": "MUKHERJEE NAGAR",
                "longitude": null,
                "latitude": null,
                "label": "Block",
                "code": "WARD013",
                "children": []
              },
              {
                "id": "8b1ccfdd-031f-44da-82f8-50aaa608fdfe",
                "boundaryNum": 14,
                "name": "DHIRPUR",
                "localname": "DHIRPUR",
                "longitude": null,
                "latitude": null,
                "label": "Block",
                "code": "WARD014",
                "children": []
              },
              {
                "id": "1d3e4b5f-fd12-4dd3-82a0-2a45ad4e1d6f",
                "boundaryNum": 15,
                "name": "ADARSH NAGAR",
                "localname": "ADARSH NAGAR",
                "longitude": null,
                "latitude": null,
                "label": "Block",
                "code": "WARD015",
                "children": []
              },
              {
                "id": "809f78d7-28bd-46fc-a88d-254612ea7085",
                "boundaryNum": 16,
                "name": "AZADPUR",
                "localname": "AZADPUR",
                "longitude": null,
                "latitude": null,
                "label": "Block",
                "code": "WARD016",
                "children": []
              },
              {
                "id": "96f99aa3-08c5-4c68-8ff9-a642e71053fc",
                "boundaryNum": 17,
                "name": "BHALSWA",
                "localname": "BHALSWA",
                "longitude": null,
                "latitude": null,
                "label": "Block",
                "code": "WARD017",
                "children": []
              },
              {
                "id": "569beba0-a7f1-4d56-b00e-33e4e5f600f5",
                "boundaryNum": 18,
                "name": "JAHANGIRPURI",
                "localname": "JAHANGIRPURI",
                "longitude": null,
                "latitude": null,
                "label": "Block",
                "code": "WARD018",
                "children": []
              },
              {
                "id": "e33391a7-af34-433c-8483-70bab3de2479",
                "boundaryNum": 19,
                "name": "SARUP NAGAR",
                "localname": "SARUP NAGAR",
                "longitude": null,
                "latitude": null,
                "label": "Block",
                "code": "WARD019",
                "children": []
              },
              {
                "id": "86cf378a-2957-47b7-9950-4ceaa1d136b5",
                "boundaryNum": 20,
                "name": "SAMAYPUR BADLI",
                "localname": "SAMAYPUR BADLI",
                "longitude": null,
                "latitude": null,
                "label": "Block",
                "code": "WARD020",
                "children": []
              }
            ]
          },
          {
            "id": "1c5dbabd-e04a-44e1-ac27-1fea19fac28f",
            "boundaryNum": 4,
            "name": "Karol Bagh",
            "localname": "Karol Bagh",
            "longitude": null,
            "latitude": null,
            "label": "Zone",
            "code": "KBZ",
            "children": [
              {
                "id": "78150fa2-e2af-4b60-a60f-a8509624bbbf",
                "boundaryNum": 82,
                "name": "PAHARGANJ",
                "localname": "PAHARGANJ",
                "longitude": 77.219,
                "latitude": 28.645,
                "label": "Block",
                "code": "WARD82",
                "children": []
              },
              {
                "id": "3d5ad879-37b9-473f-baa7-864985527a3e",
                "boundaryNum": 83,
                "name": "KAROLBAGH",
                "localname": "KAROLBAGH",
                "longitude": 77.1907,
                "latitude": 28.6514,
                "label": "Block",
                "code": "WARD83",
                "children": []
              },
              {
                "id": "e5abe397-94b8-4312-a38a-0ae16ef432dc",
                "boundaryNum": 84,
                "name": "DEV NAGAR",
                "localname": "DEV NAGAR",
                "longitude": 77.18,
                "latitude": 28.6535,
                "label": "Block",
                "code": "WARD84",
                "children": []
              },
              {
                "id": "ac44f7eb-fb10-428f-b8d9-4a5b534a5abb",
                "boundaryNum": 85,
                "name": "WEST PATEL NAGAR",
                "localname": "WEST PATEL NAGAR",
                "longitude": 77.171,
                "latitude": 28.6508,
                "label": "Block",
                "code": "WARD85",
                "children": []
              },
              {
                "id": "834a7710-8f58-4105-8b61-b1c52cad24bb",
                "boundaryNum": 86,
                "name": "EAST PATEL NAGAR",
                "localname": "EAST PATEL NAGAR",
                "longitude": 77.1823,
                "latitude": 28.6437,
                "label": "Block",
                "code": "WARD86",
                "children": []
              },
              {
                "id": "7400eaf9-e0ec-4266-a8e4-46ec5e350840",
                "boundaryNum": 87,
                "name": "RANJIT NAGAR",
                "localname": "RANJIT NAGAR",
                "longitude": 77.17,
                "latitude": 28.651,
                "label": "Block",
                "code": "WARD87",
                "children": []
              },
              {
                "id": "d581031e-c3c3-41d2-a922-114460fdf8ee",
                "boundaryNum": 88,
                "name": "BALJIT NAGAR",
                "localname": "BALJIT NAGAR",
                "longitude": 77.1423,
                "latitude": 28.6765,
                "label": "Block",
                "code": "WARD88",
                "children": []
              },
              {
                "id": "efc92139-ad06-4581-9e05-a4db136d61c3",
                "boundaryNum": 89,
                "name": "KARAMPURA",
                "localname": "KARAMPURA",
                "longitude": 77.17,
                "latitude": 28.652,
                "label": "Block",
                "code": "WARD89",
                "children": []
              },
              {
                "id": "1856ebd5-05a7-41f0-b8fc-a49c7afe9c69",
                "boundaryNum": 90,
                "name": "MOTI NAGAR",
                "localname": "MOTI NAGAR",
                "longitude": 77.1411,
                "latitude": 28.6623,
                "label": "Block",
                "code": "WARD90",
                "children": []
              },
              {
                "id": "73939d64-9612-4bff-a46a-ff8af4da1691",
                "boundaryNum": 91,
                "name": "RAMESH NAGAR",
                "localname": "RAMESH NAGAR",
                "longitude": 77.1403,
                "latitude": 28.6483,
                "label": "Block",
                "code": "WARD91",
                "children": []
              },
              {
                "id": "b695aaeb-8df1-4b29-bfb9-9deba8372db0",
                "boundaryNum": 139,
                "name": "NARAINA",
                "localname": "NARAINA",
                "longitude": 77.1489,
                "latitude": 28.6394,
                "label": "Block",
                "code": "WARD139",
                "children": []
              },
              {
                "id": "e2f0ddda-e3ac-4a3e-91ab-856dc11b9ca1",
                "boundaryNum": 140,
                "name": "INDERPURI",
                "localname": "INDERPURI",
                "longitude": 77.2095,
                "latitude": 28.6162,
                "label": "Block",
                "code": "WARD140",
                "children": []
              },
              {
                "id": "316d2fbc-4b49-4d25-832c-f575415ff589",
                "boundaryNum": 141,
                "name": "RAJENDER NAGAR",
                "localname": "RAJENDER NAGAR",
                "longitude": 77.1622,
                "latitude": 28.639,
                "label": "Block",
                "code": "WARD141",
                "children": []
              }
            ]
          },
          {
            "id": "1c5dbabd-e04a-44e1-ac27-1fea19fac28f",
            "boundaryNum": 5,
            "name": "Keshavpuram",
            "localname": "Keshavpuram",
            "longitude": null,
            "latitude": null,
            "label": "Zone",
            "code": "KPZ",
            "children": [
              {
                "id": "47179f3f-5683-4279-b542-942cfba7dbc8",
                "boundaryNum": 55,
                "name": "SHALIMAR BAGH-A",
                "localname": "SHALIMAR BAGH-A",
                "longitude": 77.154,
                "latitude": 28.705,
                "label": "Block",
                "code": "WARD55",
                "children": []
              },
              {
                "id": "aa112586-484e-484e-923b-9315372af28b",
                "boundaryNum": 56,
                "name": "SHALIMAR BAGH-B",
                "localname": "SHALIMAR BAGH-B",
                "longitude": 77.1529,
                "latitude": 28.7078,
                "label": "Block",
                "code": "WARD56",
                "children": []
              },
              {
                "id": "31288c0b-7c84-4f00-aa14-6b4f49f51e8c",
                "boundaryNum": 57,
                "name": "PITAMPURA",
                "localname": "PITAMPURA",
                "longitude": 77.1329,
                "latitude": 28.6986,
                "label": "Block",
                "code": "WARD57",
                "children": []
              },
              {
                "id": "b457064a-b685-4a49-8746-f956718e11ad",
                "boundaryNum": 58,
                "name": "SARASWATI VIHAR",
                "localname": "SARASWATI VIHAR",
                "longitude": 77.1329,
                "latitude": 28.6986,
                "label": "Block",
                "code": "WARD58",
                "children": []
              },
              {
                "id": "c03768aa-a6de-4b4a-86db-e81f7b9ff5d3",
                "boundaryNum": 59,
                "name": "PASCHIM VIHAR",
                "localname": "PASCHIM VIHAR",
                "longitude": 77.1,
                "latitude": 28.67,
                "label": "Block",
                "code": "WARD59",
                "children": []
              },
              {
                "id": "06c9a085-3dde-47c1-9b11-5a9fb7682306",
                "boundaryNum": 60,
                "name": "RANIBAGH",
                "localname": "RANIBAGH",
                "longitude": 77.1329,
                "latitude": 28.6986,
                "label": "Block",
                "code": "WARD60",
                "children": []
              },
              {
                "id": "f94bfc11-97b9-41fd-bc06-bc6a3afb496b",
                "boundaryNum": 61,
                "name": "KOHAT ENCLAVE",
                "localname": "KOHAT ENCLAVE",
                "longitude": 77.13,
                "latitude": 28.715,
                "label": "Block",
                "code": "WARD61",
                "children": []
              },
              {
                "id": "84b02176-6e0a-4b70-8e97-8b7e31001e4e",
                "boundaryNum": 62,
                "name": "SHAKURPUR",
                "localname": "SHAKURPUR",
                "longitude": 77.1207,
                "latitude": 28.682,
                "label": "Block",
                "code": "WARD62",
                "children": []
              },
              {
                "id": "f4e40ba6-c915-4992-ba11-5913c32e9f90",
                "boundaryNum": 63,
                "name": "TRI NAGAR",
                "localname": "TRI NAGAR",
                "longitude": 77.1545,
                "latitude": 28.6827,
                "label": "Block",
                "code": "WARD63",
                "children": []
              },
              {
                "id": "b14f48c4-07c3-4869-8125-d106fb10f550",
                "boundaryNum": 64,
                "name": "KESHAV PURAM",
                "localname": "KESHAV PURAM",
                "longitude": 77.147,
                "latitude": 28.709,
                "label": "Block",
                "code": "WARD64",
                "children": []
              },
              {
                "id": "196a59d4-9200-4f40-8b1e-4030d403ba53",
                "boundaryNum": 65,
                "name": "ASHOK VIHAR",
                "localname": "ASHOK VIHAR",
                "longitude": 77.17005,
                "latitude": 28.68839,
                "label": "Block",
                "code": "WARD65",
                "children": []
              },
              {
                "id": "515c4a3b-f242-4688-89e1-aa2e97341b81",
                "boundaryNum": 66,
                "name": "WAZIRPUR",
                "localname": "WAZIRPUR",
                "longitude": 77.1807,
                "latitude": 28.6813,
                "label": "Block",
                "code": "WARD66",
                "children": []
              },
              {
                "id": "72c56f74-95e5-40ef-a4ba-812bf2f463d6",
                "boundaryNum": 67,
                "name": "SANGAM PARK",
                "localname": "SANGAM PARK",
                "longitude": 77.1914,
                "latitude": 28.681,
                "label": "Block",
                "code": "WARD67",
                "children": []
              },
              {
                "id": "b28ae0b3-b590-4659-995f-2bf2f9222d2d",
                "boundaryNum": 68,
                "name": "MODEL TOWN",
                "localname": "MODEL TOWN",
                "longitude": 77.182,
                "latitude": 28.686,
                "label": "Block",
                "code": "WARD68",
                "children": []
              },
              {
                "id": "06b0253c-1c8f-4f52-9529-985b1009fb4a",
                "boundaryNum": 69,
                "name": "KAMLA NAGAR",
                "localname": "KAMLA NAGAR",
                "longitude": 77.20459,
                "latitude": 28.68091,
                "label": "Block",
                "code": "WARD69",
                "children": []
              }
            ]
          },
          {
            "id": "1c5dbabd-e04a-44e1-ac27-1fea19fac28f",
            "boundaryNum": 6,
            "name": "Najafgarh Zone",
            "localname": "Najafgarh Zone",
            "longitude": null,
            "latitude": null,
            "label": "Zone",
            "code": "NGZ",
            "children": [
              {
                "id": "9862d714-e781-4ffd-962a-d929f04d4e24",
                "boundaryNum": 117,
                "name": "DABRI",
                "localname": "DABRI",
                "longitude": 77.086,
                "latitude": 28.564,
                "label": "Block",
                "code": "WARD117",
                "children": []
              },
              {
                "id": "fe0f1c14-f943-403b-9e59-2db81e8b879d",
                "boundaryNum": 118,
                "name": "SAGARPUR",
                "localname": "SAGARPUR",
                "longitude": 77.092,
                "latitude": 28.5805,
                "label": "Block",
                "code": "WARD118",
                "children": []
              },
              {
                "id": "0412e773-2ee6-4710-a8f7-d472a8c9c23c",
                "boundaryNum": 119,
                "name": "MANGLAPURI",
                "localname": "MANGLAPURI",
                "longitude": 77.062,
                "latitude": 28.6065,
                "label": "Block",
                "code": "WARD119",
                "children": []
              },
              {
                "id": "956017b5-47ac-41d3-a206-32acc898341d",
                "boundaryNum": 120,
                "name": "DWARKA-B",
                "localname": "DWARKA-B",
                "longitude": 77.056,
                "latitude": 28.631,
                "label": "Block",
                "code": "WARD120",
                "children": []
              },
              {
                "id": "115d576b-1e64-4ed6-93a7-a194db2ba6bf",
                "boundaryNum": 121,
                "name": "DWARKA-A",
                "localname": "DWARKA-A",
                "longitude": 77.042,
                "latitude": 28.6065,
                "label": "Block",
                "code": "WARD121",
                "children": []
              },
              {
                "id": "aea6d1fc-f792-4546-b3eb-8ae0b6baa5a6",
                "boundaryNum": 122,
                "name": "MATIALA",
                "localname": "MATIALA",
                "longitude": 77.039,
                "latitude": 28.623,
                "label": "Block",
                "code": "WARD122",
                "children": []
              },
              {
                "id": "dea045b7-3b12-4f7f-96db-6760785e9f67",
                "boundaryNum": 123,
                "name": "KAKROLA",
                "localname": "KAKROLA",
                "longitude": 77.037,
                "latitude": 28.596,
                "label": "Block",
                "code": "WARD123",
                "children": []
              },
              {
                "id": "71c86180-3427-4c65-af13-a93cadfde4ae",
                "boundaryNum": 124,
                "name": "NANGLI SAKRAVATI",
                "localname": "NANGLI SAKRAVATI",
                "longitude": 77.005,
                "latitude": 28.594,
                "label": "Block",
                "code": "WARD124",
                "children": []
              },
              {
                "id": "70b2b37d-3ac2-4a69-9480-27ff377a6ccb",
                "boundaryNum": 125,
                "name": "CHHAWLA",
                "localname": "CHHAWLA",
                "longitude": 77.015,
                "latitude": 28.53,
                "label": "Block",
                "code": "WARD125",
                "children": []
              },
              {
                "id": "33ee71c4-12c7-40df-adbc-2268999dfaed",
                "boundaryNum": 126,
                "name": "ISAPUR",
                "localname": "ISAPUR",
                "longitude": 77.015,
                "latitude": 28.54,
                "label": "Block",
                "code": "WARD126",
                "children": []
              },
              {
                "id": "8dcb8322-95a8-4157-93a9-25c8f7d0df84",
                "boundaryNum": 127,
                "name": "NAJAFGARH",
                "localname": "NAJAFGARH",
                "longitude": 76.959,
                "latitude": 28.615,
                "label": "Block",
                "code": "WARD127",
                "children": []
              },
              {
                "id": "90a6d00b-adce-41ac-8dab-e775a88f58f1",
                "boundaryNum": 128,
                "name": "DICHAON KALAN",
                "localname": "DICHAON KALAN",
                "longitude": 76.985,
                "latitude": 28.574,
                "label": "Block",
                "code": "WARD128",
                "children": []
              },
              {
                "id": "653eb15b-dfc5-48a0-adbc-927dc898dedf",
                "boundaryNum": 129,
                "name": "ROSHANPURA",
                "localname": "ROSHANPURA",
                "longitude": 77.0415,
                "latitude": 28.6155,
                "label": "Block",
                "code": "WARD129",
                "children": []
              },
              {
                "id": "399c6aae-275d-4bce-98d0-5846d58456c2",
                "boundaryNum": 130,
                "name": "DWARKA-C",
                "localname": "DWARKA-C",
                "longitude": 77.031,
                "latitude": 28.596,
                "label": "Block",
                "code": "WARD130",
                "children": []
              },
              {
                "id": "95ec5002-19c9-491d-ba6e-3aaebc887239",
                "boundaryNum": 131,
                "name": "BIJWASAN",
                "localname": "BIJWASAN",
                "longitude": 77.06,
                "latitude": 28.517,
                "label": "Block",
                "code": "WARD131",
                "children": []
              },
              {
                "id": "e5d853d4-c6e2-423a-b758-3e5cb5acd27a",
                "boundaryNum": 132,
                "name": "KAPASHERA",
                "localname": "KAPASHERA",
                "longitude": 77.071,
                "latitude": 28.516,
                "label": "Block",
                "code": "WARD132",
                "children": []
              },
              {
                "id": "8b29316b-672f-4771-9b09-63cffba8db87",
                "boundaryNum": 133,
                "name": "MAHIPALPUR",
                "localname": "MAHIPALPUR",
                "longitude": 77.11,
                "latitude": 28.555,
                "label": "Block",
                "code": "WARD133",
                "children": []
              },
              {
                "id": "34d88fdb-41b2-4fed-8d4d-3df8aa678466",
                "boundaryNum": 134,
                "name": "RAJ NAGAR",
                "localname": "RAJ NAGAR",
                "longitude": 77.073,
                "latitude": 28.5895,
                "label": "Block",
                "code": "WARD134",
                "children": []
              },
              {
                "id": "35d5ed88-3a2b-4801-96bd-f9431996fb51",
                "boundaryNum": 135,
                "name": "PALAM",
                "localname": "PALAM",
                "longitude": 77.071,
                "latitude": 28.586,
                "label": "Block",
                "code": "WARD135",
                "children": []
              },
              {
                "id": "20eae5fa-4a5f-4577-8809-07655301959f",
                "boundaryNum": 136,
                "name": "MADHU VIHAR",
                "localname": "MADHU VIHAR",
                "longitude": 77.032,
                "latitude": 28.609,
                "label": "Block",
                "code": "WARD136",
                "children": []
              },
              {
                "id": "6d10d24b-09c7-4b05-ba87-aa3c6c640615",
                "boundaryNum": 137,
                "name": "MAHAVIR ENCLAVE",
                "localname": "MAHAVIR ENCLAVE",
                "longitude": 77.055,
                "latitude": 28.5978,
                "label": "Block",
                "code": "WARD137",
                "children": []
              },
              {
                "id": "a9b71061-f941-4d17-a7c2-334e272b4635",
                "boundaryNum": 138,
                "name": "SADH NAGAR",
                "localname": "SADH NAGAR",
                "longitude": 77.046,
                "latitude": 28.594,
                "label": "Block",
                "code": "WARD138",
                "children": []
              }
            ]
          },
          {
            "id": "1c5dbabd-e04a-44e1-ac27-1fea19fac28f",
            "boundaryNum": 7,
            "name": "Narela Zone",
            "localname": "Narela Zone",
            "longitude": null,
            "latitude": null,
            "label": "Zone",
            "code": "NZ",
            "children": [
              {
                "id": "1d7fd0e0-6781-4b80-b855-4a273e984314",
                "boundaryNum": 1,
                "name": "NARELA",
                "localname": "NARELA",
                "longitude": 77.095,
                "latitude": 28.7805,
                "label": "Block",
                "code": "WARD1",
                "children": []
              },
              {
                "id": "85996129-8b61-4de6-9a1d-b249726056eb",
                "boundaryNum": 2,
                "name": "BANKNER",
                "localname": "BANKNER",
                "longitude": 77.101,
                "latitude": 28.852,
                "label": "Block",
                "code": "WARD2",
                "children": []
              },
              {
                "id": "0bfaf8b6-fddf-42c7-bbf5-2ca1fbc35095",
                "boundaryNum": 3,
                "name": "HOLAMBI KALAN",
                "localname": "HOLAMBI KALAN",
                "longitude": 77.12,
                "latitude": 28.81,
                "label": "Block",
                "code": "WARD3",
                "children": []
              },
              {
                "id": "65c00f12-383c-4529-b575-35d44a4b6c05",
                "boundaryNum": 4,
                "name": "ALIPUR",
                "localname": "ALIPUR",
                "longitude": 77.1294,
                "latitude": 28.7412,
                "label": "Block",
                "code": "WARD4",
                "children": []
              },
              {
                "id": "c4e056b5-9367-4668-b977-4f52b0847f86",
                "boundaryNum": 5,
                "name": "BAKHTAWARPUR",
                "localname": "BAKHTAWARPUR",
                "longitude": 77.14,
                "latitude": 28.7275,
                "label": "Block",
                "code": "WARD5",
                "children": []
              },
              {
                "id": "8a7cc82f-109b-4382-a1a5-f2c8d4da485a",
                "boundaryNum": 26,
                "name": "POOTH KALAN",
                "localname": "POOTH KALAN",
                "longitude": 77.094,
                "latitude": 28.7395,
                "label": "Block",
                "code": "WARD26",
                "children": []
              },
              {
                "id": "5e944c91-09ae-4a01-a288-3f3452a8d649",
                "boundaryNum": 27,
                "name": "BEGUMPUR",
                "localname": "BEGUMPUR",
                "longitude": 77.05,
                "latitude": 28.735,
                "label": "Block",
                "code": "WARD27",
                "children": []
              },
              {
                "id": "83a26de0-35ca-4de9-89bc-d2956d50f708",
                "boundaryNum": 28,
                "name": "SHAHBAAD DAIRY",
                "localname": "SHAHBAAD DAIRY",
                "longitude": 77.105,
                "latitude": 28.735,
                "label": "Block",
                "code": "WARD28",
                "children": []
              },
              {
                "id": "1691ec67-bfed-4c6c-bc02-8a9dab0eaf1b",
                "boundaryNum": 29,
                "name": "POOTH KHURD",
                "localname": "POOTH KHURD",
                "longitude": 77.11,
                "latitude": 28.722,
                "label": "Block",
                "code": "WARD29",
                "children": []
              },
              {
                "id": "ae93f8ab-63a0-450f-9376-7ccb2440024c",
                "boundaryNum": 30,
                "name": "BAWANA",
                "localname": "BAWANA",
                "longitude": 77.057,
                "latitude": 28.74,
                "label": "Block",
                "code": "WARD30",
                "children": []
              },
              {
                "id": "ca1eb109-16e0-4b3b-b8e1-cb65e886b86a",
                "boundaryNum": 31,
                "name": "NANGAL THAKRAN",
                "localname": "NANGAL THAKRAN",
                "longitude": 77.093,
                "latitude": 28.735,
                "label": "Block",
                "code": "WARD31",
                "children": []
              },
              {
                "id": "4a8e2cde-2939-4e3f-908d-239a8d6ffa22",
                "boundaryNum": 32,
                "name": "KANJHAWALA",
                "localname": "KANJHAWALA",
                "longitude": 77.0275,
                "latitude": 28.7755,
                "label": "Block",
                "code": "WARD32",
                "children": []
              },
              {
                "id": "408b3112-4f06-4e9a-9511-98b754257131",
                "boundaryNum": 33,
                "name": "RANI KHERA",
                "localname": "RANI KHERA",
                "longitude": 77.0305,
                "latitude": 28.748,
                "label": "Block",
                "code": "WARD33",
                "children": []
              },
              {
                "id": "28ac9b14-0f31-491d-a628-ad75e0eb87f0",
                "boundaryNum": 34,
                "name": "NANGLOI",
                "localname": "NANGLOI",
                "longitude": 77.056,
                "latitude": 28.7105,
                "label": "Block",
                "code": "WARD34",
                "children": []
              },
              {
                "id": "9fd1610e-3deb-4388-b96a-c15c167af083",
                "boundaryNum": 35,
                "name": "MUNDAKA",
                "localname": "MUNDAKA",
                "longitude": 77.06,
                "latitude": 28.71,
                "label": "Block",
                "code": "WARD35",
                "children": []
              },
              {
                "id": "fc77c46f-c964-48fd-a659-2e31d79e43ee",
                "boundaryNum": 36,
                "name": "NILOTHI",
                "localname": "NILOTHI",
                "longitude": 77.074,
                "latitude": 28.705,
                "label": "Block",
                "code": "WARD36",
                "children": []
              }
            ]
          },
          {
            "id": "1c5dbabd-e04a-44e1-ac27-1fea19fac28f",
            "boundaryNum": 8,
            "name": "North Shahdara Zone",
            "localname": "North Shahdara Zone",
            "longitude": null,
            "latitude": null,
            "label": "Zone",
            "code": "NSZ",
            "children": [
              {
                "id": "e03bc046-1547-4ecb-b3e8-74f8f5b4fc7c",
                "boundaryNum": 216,
                "name": "JHILMIL",
                "localname": "JHILMIL",
                "longitude": 77.293,
                "latitude": 28.682,
                "label": "Block",
                "code": "WARD216",
                "children": []
              },
              {
                "id": "d8514016-467e-4657-ae0d-4c8ee0f5a540",
                "boundaryNum": 217,
                "name": "DILSHAD COLONY",
                "localname": "DILSHAD COLONY",
                "longitude": 77.3167,
                "latitude": 28.6833,
                "label": "Block",
                "code": "WARD217",
                "children": []
              },
              {
                "id": "f608470a-80ca-4e11-a9f9-2dbc510076a8",
                "boundaryNum": 218,
                "name": "SUNDER NAGARI",
                "localname": "SUNDER NAGARI",
                "longitude": 77.278,
                "latitude": 28.687,
                "label": "Block",
                "code": "WARD218",
                "children": []
              },
              {
                "id": "79cc0c9b-f344-4370-8ae7-c5cfb61a8fb6",
                "boundaryNum": 219,
                "name": "DILSHAD GARDEN",
                "localname": "DILSHAD GARDEN",
                "longitude": 77.3167,
                "latitude": 28.6833,
                "label": "Block",
                "code": "WARD219",
                "children": []
              },
              {
                "id": "7da9b633-f7b3-4117-815d-bc2c1545bbe7",
                "boundaryNum": 220,
                "name": "NAND NAGRI",
                "localname": "NAND NAGRI",
                "longitude": 77.2815,
                "latitude": 28.675,
                "label": "Block",
                "code": "WARD220",
                "children": []
              },
              {
                "id": "b13e4149-84c6-441e-a3e2-3e3f081b3cca",
                "boundaryNum": 221,
                "name": "ASHOK NAGAR",
                "localname": "ASHOK NAGAR",
                "longitude": 77.284,
                "latitude": 28.702,
                "label": "Block",
                "code": "WARD221",
                "children": []
              },
              {
                "id": "8a9f0f73-bc1a-401b-84b4-5b825afedb2c",
                "boundaryNum": 222,
                "name": "RAM NAGAR EAST",
                "localname": "RAM NAGAR EAST",
                "longitude": 77.275,
                "latitude": 28.67,
                "label": "Block",
                "code": "WARD222",
                "children": []
              },
              {
                "id": "d14ed79f-8148-4146-ad26-c92f87f86a52",
                "boundaryNum": 223,
                "name": "ROHTAS NAGAR",
                "localname": "ROHTAS NAGAR",
                "longitude": 77.2895,
                "latitude": 28.663,
                "label": "Block",
                "code": "WARD223",
                "children": []
              },
              {
                "id": "8f028a53-0285-4385-a6ff-c0ecaf248343",
                "boundaryNum": 224,
                "name": "WELCOME COLONY",
                "localname": "WELCOME COLONY",
                "longitude": 77.265,
                "latitude": 28.666,
                "label": "Block",
                "code": "WARD224",
                "children": []
              },
              {
                "id": "00729084-2e2a-43b9-a574-17456428c086",
                "boundaryNum": 225,
                "name": "SEELAMPUR",
                "localname": "SEELAMPUR",
                "longitude": 77.2675,
                "latitude": 28.672,
                "label": "Block",
                "code": "WARD225",
                "children": []
              },
              {
                "id": "1ad5b24d-bf31-4685-b788-a5d76a2ebb56",
                "boundaryNum": 226,
                "name": "GAUTAM PURI",
                "localname": "GAUTAM PURI",
                "longitude": 77.3167,
                "latitude": 28.6833,
                "label": "Block",
                "code": "WARD226",
                "children": []
              },
              {
                "id": "6339b6b2-6915-4f93-9a25-4d57dc51d06a",
                "boundaryNum": 227,
                "name": "CHAUHAN BANGER",
                "localname": "CHAUHAN BANGER",
                "longitude": 77.2645,
                "latitude": 28.6756,
                "label": "Block",
                "code": "WARD227",
                "children": []
              },
              {
                "id": "51649baf-ba0d-4215-994f-7695e54f6d77",
                "boundaryNum": 228,
                "name": "MAUJPUR",
                "localname": "MAUJPUR",
                "longitude": 77.269,
                "latitude": 28.672,
                "label": "Block",
                "code": "WARD228",
                "children": []
              },
              {
                "id": "ca7fa60a-4156-4240-b3f9-f94448fd2ea6",
                "boundaryNum": 229,
                "name": "BRAHAM PURI",
                "localname": "BRAHAM PURI",
                "longitude": 77.2645,
                "latitude": 28.6756,
                "label": "Block",
                "code": "WARD229",
                "children": []
              },
              {
                "id": "4490aa4d-090e-4acb-bee4-c69c425904f0",
                "boundaryNum": 230,
                "name": "BHAJANPURA",
                "localname": "BHAJANPURA",
                "longitude": 77.2643,
                "latitude": 28.7035,
                "label": "Block",
                "code": "WARD230",
                "children": []
              },
              {
                "id": "bc105f38-25f5-4e6e-a0fa-5e882ec91aa8",
                "boundaryNum": 231,
                "name": "GHONDA",
                "localname": "GHONDA",
                "longitude": 77.25291,
                "latitude": 28.7396,
                "label": "Block",
                "code": "WARD231",
                "children": []
              },
              {
                "id": "0da9349d-b2f4-47d6-9341-8c61fdbfb1d0",
                "boundaryNum": 232,
                "name": "YAMUNA VIHAR",
                "localname": "YAMUNA VIHAR",
                "longitude": 77.28,
                "latitude": 28.6755,
                "label": "Block",
                "code": "WARD232",
                "children": []
              },
              {
                "id": "4bc4b7cb-566c-46b6-ae4c-1e53cd853732",
                "boundaryNum": 233,
                "name": "SUBHASH MOHALLA",
                "localname": "SUBHASH MOHALLA",
                "longitude": 77.26,
                "latitude": 28.704,
                "label": "Block",
                "code": "WARD233",
                "children": []
              },
              {
                "id": "7c9f6f37-95b0-4f53-9c96-0adc502069e1",
                "boundaryNum": 234,
                "name": "KABIR NAGAR",
                "localname": "KABIR NAGAR",
                "longitude": 77.282,
                "latitude": 28.71,
                "label": "Block",
                "code": "WARD234",
                "children": []
              },
              {
                "id": "c4051f32-5db6-481d-af27-090096954506",
                "boundaryNum": 235,
                "name": "GORAKH PARK",
                "localname": "GORAKH PARK",
                "longitude": 77.284,
                "latitude": 28.673,
                "label": "Block",
                "code": "WARD235",
                "children": []
              },
              {
                "id": "f566e24e-9e5f-41b7-b1ce-a7af2d8eed1a",
                "boundaryNum": 236,
                "name": "KARDAMPURI",
                "localname": "KARDAMPURI",
                "longitude": 77.282,
                "latitude": 28.6855,
                "label": "Block",
                "code": "WARD236",
                "children": []
              },
              {
                "id": "9cb0c81c-ac3b-40c6-a894-bd153c04911e",
                "boundaryNum": 237,
                "name": "HARSH VIHAR",
                "localname": "HARSH VIHAR",
                "longitude": 77.298,
                "latitude": 28.693,
                "label": "Block",
                "code": "WARD237",
                "children": []
              },
              {
                "id": "fd3f3faa-699e-4d8a-b988-6d0fb21b8e12",
                "boundaryNum": 238,
                "name": "SABOLI",
                "localname": "SABOLI",
                "longitude": 77.2805,
                "latitude": 28.666,
                "label": "Block",
                "code": "WARD238",
                "children": []
              },
              {
                "id": "966d494d-d4f9-43e5-b66b-7e407ec9ecbc",
                "boundaryNum": 239,
                "name": "GOKALPURI",
                "localname": "GOKALPURI",
                "longitude": 77.2345,
                "latitude": 28.5623,
                "label": "Block",
                "code": "WARD239",
                "children": []
              },
              {
                "id": "5aa10c6e-9ccd-4333-a846-0656d7a8d064",
                "boundaryNum": 240,
                "name": "JOHARIPUR",
                "localname": "JOHARIPUR",
                "longitude": 77.286,
                "latitude": 28.713,
                "label": "Block",
                "code": "WARD240",
                "children": []
              },
              {
                "id": "fe7a7567-21f6-4417-ba05-5d991c75d38e",
                "boundaryNum": 241,
                "name": "KARAWAL NAGAR EAST",
                "localname": "KARAWAL NAGAR EAST",
                "longitude": 77.292,
                "latitude": 28.708,
                "label": "Block",
                "code": "WARD241",
                "children": []
              },
              {
                "id": "9f1c7fc0-548e-4a86-a1f9-2e486bd413fb",
                "boundaryNum": 242,
                "name": "DAYALPUR",
                "localname": "DAYALPUR",
                "longitude": 77.28,
                "latitude": 28.7,
                "label": "Block",
                "code": "WARD242",
                "children": []
              },
              {
                "id": "d76c15f9-a200-4b69-8e25-394d5f81d955",
                "boundaryNum": 243,
                "name": "MUSTAFABAD",
                "localname": "MUSTAFABAD",
                "longitude": 77.276,
                "latitude": 28.699,
                "label": "Block",
                "code": "WARD243",
                "children": []
              },
              {
                "id": "74852258-f6e8-422e-8165-b6110ad61e8c",
                "boundaryNum": 244,
                "name": "NEHRU VIHAR",
                "localname": "NEHRU VIHAR",
                "longitude": 77.28,
                "latitude": 28.688,
                "label": "Block",
                "code": "WARD244",
                "children": []
              },
              {
                "id": "49f1edee-5eaa-44cd-b567-3c99f487ef33",
                "boundaryNum": 245,
                "name": "BRIJ PURI",
                "localname": "BRIJ PURI",
                "longitude": 77.28,
                "latitude": 28.7,
                "label": "Block",
                "code": "WARD245",
                "children": []
              },
              {
                "id": "fc025533-07cc-47e4-b18a-0a1efa85ee2b",
                "boundaryNum": 246,
                "name": "SRI RAM COLONY",
                "localname": "SRI RAM COLONY",
                "longitude": 77.267,
                "latitude": 28.692,
                "label": "Block",
                "code": "WARD246",
                "children": []
              },
              {
                "id": "847fd45d-8185-4bc2-bb87-fbb3947a7f80",
                "boundaryNum": 247,
                "name": "SADAT PUR",
                "localname": "SADAT PUR",
                "longitude": 77.276,
                "latitude": 28.705,
                "label": "Block",
                "code": "WARD247",
                "children": []
              },
              {
                "id": "7b0b9a3c-d607-48be-a896-390c7625d2b2",
                "boundaryNum": 248,
                "name": "KARAWAL NAGAR WEST",
                "localname": "KARAWAL NAGAR WEST",
                "longitude": 77.285,
                "latitude": 28.705,
                "label": "Block",
                "code": "WARD248",
                "children": []
              },
              {
                "id": "b278dbdb-7782-48af-93ea-588747219f6b",
                "boundaryNum": 249,
                "name": "SONIA VIHAR",
                "localname": "SONIA VIHAR",
                "longitude": 77.3,
                "latitude": 28.705,
                "label": "Block",
                "code": "WARD249",
                "children": []
              },
              {
                "id": "ebba25bf-7490-4c4a-b88e-ccc3030ab3e8",
                "boundaryNum": 250,
                "name": "RAM NAGAR SHADARA",
                "localname": "RAM NAGAR SHADARA",
                "longitude": 77.2835,
                "latitude": 28.7135,
                "label": "Block",
                "code": "WARD250",
                "children": []
              },
              {
                "id": "41ccf979-6c29-4ded-9fe6-6e290f80c017",
                "boundaryNum": 250,
                "name": "SABAPUR",
                "localname": "SABAPUR",
                "longitude": 77.28,
                "latitude": 28.71,
                "label": "Block",
                "code": "WARD250",
                "children": []
              }
            ]
          },
          {
            "id": "1c5dbabd-e04a-44e1-ac27-1fea19fac28f",
            "boundaryNum": 9,
            "name": "Rohini Zone",
            "localname": "Rohini Zone",
            "longitude": null,
            "latitude": null,
            "label": "Zone",
            "code": "RZ",
            "children": [
              {
                "id": "b795c40d-7846-49da-bad6-059f69ec7cfc",
                "boundaryNum": 21,
                "name": "ROHINI - A",
                "localname": "ROHINI - A",
                "longitude": 77.108,
                "latitude": 28.73,
                "label": "Block",
                "code": "WARD021",
                "children": []
              },
              {
                "id": "871bf851-a8a6-49b8-92f8-8204c661093d",
                "boundaryNum": 22,
                "name": "ROHINI - B",
                "localname": "ROHINI - B",
                "longitude": 77.105,
                "latitude": 28.733,
                "label": "Block",
                "code": "WARD022",
                "children": []
              },
              {
                "id": "4ddd1bca-b46c-4cfe-b704-905b92ef1785",
                "boundaryNum": 23,
                "name": "RITHALA",
                "localname": "RITHALA",
                "longitude": 77.112,
                "latitude": 28.722,
                "label": "Block",
                "code": "WARD023",
                "children": []
              },
              {
                "id": "ceecb25e-907b-468b-b16c-a7649942f7bc",
                "boundaryNum": 24,
                "name": "VIJAY VIHAR",
                "localname": "VIJAY VIHAR",
                "longitude": 77.132,
                "latitude": 28.709,
                "label": "Block",
                "code": "WARD024",
                "children": []
              },
              {
                "id": "b8a86540-a107-4104-a589-b785ce3d1a4b",
                "boundaryNum": 25,
                "name": "BUDH VIHAR",
                "localname": "BUDH VIHAR",
                "longitude": 77.0867,
                "latitude": 28.7097,
                "label": "Block",
                "code": "WARD025",
                "children": []
              },
              {
                "id": "2f209651-2aca-4187-8d55-858c3cf7d6e5",
                "boundaryNum": 37,
                "name": "KIRARI",
                "localname": "KIRARI",
                "longitude": 77.0867,
                "latitude": 28.7097,
                "label": "Block",
                "code": "WARD037",
                "children": []
              },
              {
                "id": "3ea94d76-e1df-43d7-8b51-1c3ebc0369d9",
                "boundaryNum": 38,
                "name": "PREM NAGAR",
                "localname": "PREM NAGAR",
                "longitude": 77.058,
                "latitude": 28.6295,
                "label": "Block",
                "code": "WARD038",
                "children": []
              },
              {
                "id": "fd106134-c431-4192-b0b4-04b03d037a8f",
                "boundaryNum": 39,
                "name": "MUBARAKPUR DABAS",
                "localname": "MUBARAKPUR DABAS",
                "longitude": 76.9968,
                "latitude": 28.7335,
                "label": "Block",
                "code": "WARD039",
                "children": []
              },
              {
                "id": "560a2fb6-ead3-436f-813a-84f9662275ae",
                "boundaryNum": 40,
                "name": "NITHARI",
                "localname": "NITHARI",
                "longitude": 77.07,
                "latitude": 28.639,
                "label": "Block",
                "code": "WARD040",
                "children": []
              },
              {
                "id": "282462ca-afd1-40f5-a2fc-c4651b78e5be",
                "boundaryNum": 41,
                "name": "AMAN VIHAR",
                "localname": "AMAN VIHAR",
                "longitude": 77.0481,
                "latitude": 28.7016,
                "label": "Block",
                "code": "WARD041",
                "children": []
              },
              {
                "id": "f2cfcb9e-46b3-4da6-bad7-402eaebeb627",
                "boundaryNum": 43,
                "name": "SULTANPURI - A",
                "localname": "SULTANPURI - A",
                "longitude": 77.034,
                "latitude": 28.713,
                "label": "Block",
                "code": "WARD043",
                "children": []
              },
              {
                "id": "8a187bc2-73df-427b-af0c-dcaa6319f491",
                "boundaryNum": 44,
                "name": "SULTANPURI - B",
                "localname": "SULTANPURI - B",
                "longitude": 77.034,
                "latitude": 28.713,
                "label": "Block",
                "code": "WARD044",
                "children": []
              },
              {
                "id": "25c671db-ff65-44be-9748-c45934b7baeb",
                "boundaryNum": 45,
                "name": "JAWALAPURI",
                "localname": "JAWALAPURI",
                "longitude": 77.0927,
                "latitude": 28.6797,
                "label": "Block",
                "code": "WARD045",
                "children": []
              },
              {
                "id": "b17ad266-7d18-4359-9a3c-8ca190320039",
                "boundaryNum": 46,
                "name": "NANGLOI JAAT",
                "localname": "NANGLOI JAAT",
                "longitude": "77.0650\u00b0E",
                "latitude": "28.6830\u00b0N",
                "label": "Block",
                "code": "WARD046",
                "children": []
              },
              {
                "id": "c8ebd8b5-c621-4199-9454-558ac8a5923f",
                "boundaryNum": 47,
                "name": "NIHAL VIHAR",
                "localname": "NIHAL VIHAR",
                "longitude": 77.0545,
                "latitude": 28.6425,
                "label": "Block",
                "code": "WARD047",
                "children": []
              },
              {
                "id": "05c2a52b-6086-4bbd-ba0f-cf18c97653c8",
                "boundaryNum": 48,
                "name": "GURU HARKISHAN NAGAR",
                "localname": "GURU HARKISHAN NAGAR",
                "longitude": 77.104,
                "latitude": 28.669,
                "label": "Block",
                "code": "WARD048",
                "children": []
              },
              {
                "id": "b994f1be-d0a4-4ffc-bed6-da278983a135",
                "boundaryNum": 49,
                "name": "MANGOLPURI - A",
                "localname": "MANGOLPURI - A",
                "longitude": 77.0884,
                "latitude": 28.6925,
                "label": "Block",
                "code": "WARD049",
                "children": []
              },
              {
                "id": "20f39ef2-8611-4ec1-8708-852d54e6927b",
                "boundaryNum": 50,
                "name": "MANGOLPURI - B",
                "localname": "MANGOLPURI - B",
                "longitude": 77.0884,
                "latitude": 28.6925,
                "label": "Block",
                "code": "WARD050",
                "children": []
              },
              {
                "id": "14e5fa5a-69ee-4065-8516-c88719804770",
                "boundaryNum": 51,
                "name": "ROHINI - C",
                "localname": "ROHINI - C",
                "longitude": 77.06778,
                "latitude": 28.74322,
                "label": "Block",
                "code": "WARD051",
                "children": []
              },
              {
                "id": "02847c9f-09c3-43c6-bba4-602bf2dee4b3",
                "boundaryNum": 52,
                "name": "ROHINI - F",
                "localname": "ROHINI - F",
                "longitude": 77.06778,
                "latitude": 28.74322,
                "label": "Block",
                "code": "WARD052",
                "children": []
              },
              {
                "id": "40deef88-30f6-43bc-b7cf-acff2504c400",
                "boundaryNum": 53,
                "name": "ROHINI - E",
                "localname": "ROHINI - E",
                "longitude": 77.06778,
                "latitude": 28.74322,
                "label": "Block",
                "code": "WARD053",
                "children": []
              },
              {
                "id": "37e0e606-05f4-4f06-9f99-8c8fcf6cddb0",
                "boundaryNum": 54,
                "name": "ROHINI - D",
                "localname": "ROHINI - D",
                "longitude": 77.151387,
                "latitude": 28.740287,
                "label": "Block",
                "code": "WARD054",
                "children": []
              }
            ]
          },
          {
            "id": "1c5dbabd-e04a-44e1-ac27-1fea19fac28f",
            "boundaryNum": 10,
            "name": "South Shahdara Zone",
            "localname": "South Shahdara Zone",
            "longitude": null,
            "latitude": null,
            "label": "Zone",
            "code": "SSZ",
            "children": [
              {
                "id": "e5dc5b82-83de-4403-9ac0-e5b8a8328802",
                "boundaryNum": 190,
                "name": "NEW ASHOK NAGAR",
                "localname": "NEW ASHOK NAGAR",
                "longitude": 77.3075,
                "latitude": 28.658,
                "label": "Block",
                "code": "WARD190",
                "children": []
              },
              {
                "id": "17146cec-4c3f-4d84-8fd5-8a554af16abe",
                "boundaryNum": 192,
                "name": "TRILOKPURI",
                "localname": "TRILOKPURI",
                "longitude": 77.2785,
                "latitude": 28.6185,
                "label": "Block",
                "code": "WARD192",
                "children": []
              },
              {
                "id": "25f0800c-7cb4-4bdc-abfc-3c18543add55",
                "boundaryNum": 193,
                "name": "KONDLI",
                "localname": "KONDLI",
                "longitude": 77.3261,
                "latitude": 28.6146,
                "label": "Block",
                "code": "WARD193",
                "children": []
              },
              {
                "id": "4b85ccd4-f8fb-49a2-aee2-fea712a840d5",
                "boundaryNum": 194,
                "name": "GHAROLI",
                "localname": "GHAROLI",
                "longitude": 77.3348,
                "latitude": 28.6191,
                "label": "Block",
                "code": "WARD194",
                "children": []
              },
              {
                "id": "fbf19a60-084f-45c6-965d-4a4e235e12cc",
                "boundaryNum": 195,
                "name": "KALYAN PURI",
                "localname": "KALYAN PURI",
                "longitude": 77.3152,
                "latitude": 28.6197,
                "label": "Block",
                "code": "WARD195",
                "children": []
              },
              {
                "id": "c17eb347-81d6-450e-9e0b-56ac7d28b110",
                "boundaryNum": 196,
                "name": "MAYUR VIHAR PH-I, MAYUR VIHAR PH-II",
                "localname": "MAYUR VIHAR PH-I, MAYUR VIHAR PH-II",
                "longitude": 77.291,
                "latitude": 28.6255,
                "label": "Block",
                "code": "WARD196",
                "children": []
              },
              {
                "id": "1930097b-f7ea-4278-8da1-efea014b47fb",
                "boundaryNum": 197,
                "name": "PATPAR GANJ",
                "localname": "PATPAR GANJ",
                "longitude": 77.281,
                "latitude": 28.635,
                "label": "Block",
                "code": "WARD197",
                "children": []
              },
              {
                "id": "9de73f5e-f5ff-4638-9fe1-0a548593f661",
                "boundaryNum": 198,
                "name": "VINOD NAGAR",
                "localname": "VINOD NAGAR",
                "longitude": 77.262,
                "latitude": 28.626,
                "label": "Block",
                "code": "WARD198",
                "children": []
              },
              {
                "id": "df5f0225-c3a8-475c-9e19-6322fb5c795c",
                "boundaryNum": 199,
                "name": "MANDAWALI",
                "localname": "MANDAWALI",
                "longitude": 77.2805,
                "latitude": 28.629,
                "label": "Block",
                "code": "WARD199",
                "children": []
              },
              {
                "id": "776070e4-fd6a-4ca6-aff6-d76d25593884",
                "boundaryNum": 200,
                "name": "PANDAV NAGAR",
                "localname": "PANDAV NAGAR",
                "longitude": 77.2822,
                "latitude": 28.6265,
                "label": "Block",
                "code": "WARD200",
                "children": []
              },
              {
                "id": "3e1b8e66-a6df-48c2-8969-e3f08392cb96",
                "boundaryNum": 201,
                "name": "LALITA PARK",
                "localname": "LALITA PARK",
                "longitude": 77.272,
                "latitude": 28.631,
                "label": "Block",
                "code": "WARD201",
                "children": []
              },
              {
                "id": "582967f5-69f4-4ea4-b618-d8e76a7291df",
                "boundaryNum": 202,
                "name": "SHAKARPUR",
                "localname": "SHAKARPUR",
                "longitude": 77.2745,
                "latitude": 28.6585,
                "label": "Block",
                "code": "WARD202",
                "children": []
              },
              {
                "id": "9b89b0b4-9e82-4905-9c38-a6fb031c5801",
                "boundaryNum": 203,
                "name": "LAKSHMI NAGAR",
                "localname": "LAKSHMI NAGAR",
                "longitude": 77.27,
                "latitude": 28.651,
                "label": "Block",
                "code": "WARD203",
                "children": []
              },
              {
                "id": "0ed9e46d-fa42-4b90-b374-c9e1bc43a8e6",
                "boundaryNum": 204,
                "name": "PREET VIHAR",
                "localname": "PREET VIHAR",
                "longitude": 77.27,
                "latitude": 28.649,
                "label": "Block",
                "code": "WARD204",
                "children": []
              },
              {
                "id": "6d614e17-664c-47d8-8ea8-08e0f44cc376",
                "boundaryNum": 205,
                "name": "I.P. EXTENSION",
                "localname": "I.P. EXTENSION",
                "longitude": 77.3296,
                "latitude": 28.6178,
                "label": "Block",
                "code": "WARD205",
                "children": []
              },
              {
                "id": "9e60db7b-f916-4156-af30-2bff631746d3",
                "boundaryNum": 206,
                "name": "ANAND VIHAR",
                "localname": "ANAND VIHAR",
                "longitude": 77.2975,
                "latitude": 28.6417,
                "label": "Block",
                "code": "WARD206",
                "children": []
              },
              {
                "id": "df446a04-8229-44de-b7c3-7d9ecddc4611",
                "boundaryNum": 207,
                "name": "VISHWAS NAGAR",
                "localname": "VISHWAS NAGAR",
                "longitude": 77.272,
                "latitude": 28.667,
                "label": "Block",
                "code": "WARD207",
                "children": []
              },
              {
                "id": "1f8a12af-b8f3-444b-8d29-1244dc3adaa1",
                "boundaryNum": 208,
                "name": "ANARKALI",
                "localname": "ANARKALI",
                "longitude": 77.29,
                "latitude": 28.65,
                "label": "Block",
                "code": "WARD208",
                "children": []
              },
              {
                "id": "7afb4aea-8f3d-45ba-9137-5ac77a5f8c24",
                "boundaryNum": 209,
                "name": "JAGAT PURI",
                "localname": "JAGAT PURI",
                "longitude": 77.293,
                "latitude": 28.6485,
                "label": "Block",
                "code": "WARD209",
                "children": []
              },
              {
                "id": "8ea681b0-0f28-40ec-8054-10b812f0a355",
                "boundaryNum": 210,
                "name": "GEETA COLONY",
                "localname": "GEETA COLONY",
                "longitude": 77.2666,
                "latitude": 28.6621,
                "label": "Block",
                "code": "WARD210",
                "children": []
              },
              {
                "id": "9c821d7a-ae71-4f2a-8e69-0ce7330c7ca1",
                "boundaryNum": 211,
                "name": "KRISHNA NAGAR",
                "localname": "KRISHNA NAGAR",
                "longitude": 77.278,
                "latitude": 28.653,
                "label": "Block",
                "code": "WARD211",
                "children": []
              },
              {
                "id": "722e339b-22fc-409f-b736-09407f6638ce",
                "boundaryNum": 212,
                "name": "GANDHI NAGAR",
                "localname": "GANDHI NAGAR",
                "longitude": 77.2666,
                "latitude": 28.6621,
                "label": "Block",
                "code": "WARD212",
                "children": []
              },
              {
                "id": "033b55fc-6087-432c-960a-565dd1a1c713",
                "boundaryNum": 213,
                "name": "SHASTRI PARK",
                "localname": "SHASTRI PARK",
                "longitude": 77.271,
                "latitude": 28.663,
                "label": "Block",
                "code": "WARD213",
                "children": []
              },
              {
                "id": "69ae52d6-0d14-4706-bd29-189ef5c9d914",
                "boundaryNum": 214,
                "name": "AZAD NAGAR",
                "localname": "AZAD NAGAR",
                "longitude": 77.29,
                "latitude": 28.65,
                "label": "Block",
                "code": "WARD214",
                "children": []
              },
              {
                "id": "2325d4d7-2160-4e7f-af27-168f95e717aa",
                "boundaryNum": 215,
                "name": "SHAHDARA",
                "localname": "SHAHDARA",
                "longitude": 77.262,
                "latitude": 28.67,
                "label": "Block",
                "code": "WARD215",
                "children": []
              }
            ]
          },
          {
            "id": "1c5dbabd-e04a-44e1-ac27-1fea19fac28f",
            "boundaryNum": 11,
            "name": "South Zone",
            "localname": "South Zone",
            "longitude": null,
            "latitude": null,
            "label": "Zone",
            "code": "SZ",
            "children": [
              {
                "id": "744fb2d3-1f63-4d6a-ab33-6760b22bdcb5",
                "boundaryNum": 148,
                "name": "148",
                "localname": "148",
                "longitude": 77.1915,
                "latitude": 28.54,
                "label": "Block",
                "code": "WARD148",
                "children": []
              },
              {
                "id": "bfc95db9-cda0-4351-bb22-a7aa50c1bc37",
                "boundaryNum": 149,
                "name": "149",
                "localname": "149",
                "longitude": 77.203,
                "latitude": 28.546,
                "label": "Block",
                "code": "WARD149",
                "children": []
              },
              {
                "id": "146dca9b-6df4-4a63-8e4d-31547126e5d1",
                "boundaryNum": 150,
                "name": "150",
                "localname": "150",
                "longitude": 77.208,
                "latitude": 28.5445,
                "label": "Block",
                "code": "WARD150",
                "children": []
              },
              {
                "id": "bfe9d1e5-a9ea-4e87-ae4f-4ef3b687a84f",
                "boundaryNum": 151,
                "name": "151",
                "localname": "151",
                "longitude": 77.1776,
                "latitude": 28.5571,
                "label": "Block",
                "code": "WARD151",
                "children": []
              },
              {
                "id": "e54ea11e-227e-4c24-aae4-e49f94c194a4",
                "boundaryNum": 152,
                "name": "152",
                "localname": "152",
                "longitude": 77.1775,
                "latitude": 28.562,
                "label": "Block",
                "code": "WARD152",
                "children": []
              },
              {
                "id": "93856616-8f6a-46cc-b38a-5d2cd7842319",
                "boundaryNum": 153,
                "name": "153",
                "localname": "153",
                "longitude": 77.1847,
                "latitude": 28.5441,
                "label": "Block",
                "code": "WARD153",
                "children": []
              },
              {
                "id": "f908f3c0-84e7-464a-a519-1a67915b8174",
                "boundaryNum": 154,
                "name": "154",
                "localname": "154",
                "longitude": 77.1869,
                "latitude": 28.5338,
                "label": "Block",
                "code": "WARD154",
                "children": []
              },
              {
                "id": "7fcef68c-4305-46da-808a-0505643cfee1",
                "boundaryNum": 155,
                "name": "155",
                "localname": "155",
                "longitude": 77.176,
                "latitude": 28.491,
                "label": "Block",
                "code": "WARD155",
                "children": []
              },
              {
                "id": "774c702a-6c94-4808-9e83-9972e4044647",
                "boundaryNum": 156,
                "name": "156",
                "localname": "156",
                "longitude": 77.1643,
                "latitude": 28.5345,
                "label": "Block",
                "code": "WARD156",
                "children": []
              },
              {
                "id": "387b4f9f-d4a0-4a02-9910-20d9dd1370aa",
                "boundaryNum": 157,
                "name": "157",
                "localname": "157",
                "longitude": 77.176,
                "latitude": 28.477,
                "label": "Block",
                "code": "WARD157",
                "children": []
              },
              {
                "id": "e1c91e9a-bc13-46ad-b863-946e8d72ee6b",
                "boundaryNum": 158,
                "name": "158",
                "localname": "158",
                "longitude": 77.21,
                "latitude": 28.427,
                "label": "Block",
                "code": "WARD158",
                "children": []
              },
              {
                "id": "f2ad317b-8fc0-4c9e-ad39-e02536d36133",
                "boundaryNum": 159,
                "name": "159",
                "localname": "159",
                "longitude": 77.214,
                "latitude": 28.42,
                "label": "Block",
                "code": "WARD159",
                "children": []
              },
              {
                "id": "82f35038-1af5-4bd7-b339-521e36b46f8e",
                "boundaryNum": 160,
                "name": "160",
                "localname": "160",
                "longitude": 77.172,
                "latitude": 28.4915,
                "label": "Block",
                "code": "WARD160",
                "children": []
              },
              {
                "id": "35564a32-a6cf-40f1-9a2e-553642c5f5e3",
                "boundaryNum": 161,
                "name": "161",
                "localname": "161",
                "longitude": 77.2535,
                "latitude": 28.521,
                "label": "Block",
                "code": "WARD161",
                "children": []
              },
              {
                "id": "6ddd4fd3-9cf2-45f0-961e-a826bc5b98c6",
                "boundaryNum": 162,
                "name": "162",
                "localname": "162",
                "longitude": 77.2767,
                "latitude": 28.4947,
                "label": "Block",
                "code": "WARD162",
                "children": []
              },
              {
                "id": "4a7192cd-208c-412b-9365-67e8126d8c8c",
                "boundaryNum": 163,
                "name": "163",
                "localname": "163",
                "longitude": 77.2767,
                "latitude": 28.4947,
                "label": "Block",
                "code": "WARD163",
                "children": []
              },
              {
                "id": "9d1e6d8f-0ff2-4419-a5f0-5ae2d713a237",
                "boundaryNum": 164,
                "name": "164",
                "localname": "164",
                "longitude": 77.253,
                "latitude": 28.5,
                "label": "Block",
                "code": "WARD164",
                "children": []
              },
              {
                "id": "1ef9a578-0a15-416d-a255-5052e6248311",
                "boundaryNum": 165,
                "name": "165",
                "localname": "165",
                "longitude": 77.2425,
                "latitude": 28.4825,
                "label": "Block",
                "code": "WARD165",
                "children": []
              },
              {
                "id": "ea2faf73-fba4-4f34-b4c5-f7aee14971a0",
                "boundaryNum": 166,
                "name": "166",
                "localname": "166",
                "longitude": 77.138,
                "latitude": 28.536,
                "label": "Block",
                "code": "WARD166",
                "children": []
              },
              {
                "id": "38aa8079-09f1-40f1-94d9-33be93d6e662",
                "boundaryNum": 167,
                "name": "167",
                "localname": "167",
                "longitude": 77.23,
                "latitude": 28.4705,
                "label": "Block",
                "code": "WARD167",
                "children": []
              },
              {
                "id": "9fbe4ab5-5953-426d-aeab-b9dfc3ec693c",
                "boundaryNum": 171,
                "name": "171",
                "localname": "171",
                "longitude": 77.218,
                "latitude": 28.525,
                "label": "Block",
                "code": "WARD171",
                "children": []
              },
              {
                "id": "f80e7a13-dcd6-41d1-a362-cc4067000d69",
                "boundaryNum": 172,
                "name": "172",
                "localname": "172",
                "longitude": 77.204,
                "latitude": 28.549,
                "label": "Block",
                "code": "WARD172",
                "children": []
              },
              {
                "id": "7508b9b3-9f2b-4234-a652-db9e7ac867e3",
                "boundaryNum": 173,
                "name": "173",
                "localname": "173",
                "longitude": 77.2205,
                "latitude": 28.5365,
                "label": "Block",
                "code": "WARD173",
                "children": []
              }
            ]
          },
          {
            "id": "1c5dbabd-e04a-44e1-ac27-1fea19fac28f",
            "boundaryNum": 12,
            "name": "West Zone",
            "localname": "West Zone",
            "longitude": null,
            "latitude": null,
            "label": "Zone",
            "code": "WZ",
            "children": [
              {
                "id": "f83d4b9c-9fdf-4cba-a5d6-8487600aeabf",
                "boundaryNum": 92,
                "name": "PUNJABI BAGH",
                "localname": "PUNJABI BAGH",
                "longitude": 77.1273,
                "latitude": 28.6738,
                "label": "Block",
                "code": "WARD92",
                "children": []
              },
              {
                "id": "5c579771-6dda-436f-88ee-15693985cade",
                "boundaryNum": 93,
                "name": "MADIPUR",
                "localname": "MADIPUR",
                "longitude": 77.072,
                "latitude": 28.66,
                "label": "Block",
                "code": "WARD93",
                "children": []
              },
              {
                "id": "dd9c6dab-6d7c-49d5-b590-7477fbfa752a",
                "boundaryNum": 94,
                "name": "RAGHUBIR NAGAR",
                "localname": "RAGHUBIR NAGAR",
                "longitude": 77.101,
                "latitude": 28.653,
                "label": "Block",
                "code": "WARD94",
                "children": []
              },
              {
                "id": "28479d2e-f5e6-4c3b-8ff9-8f5537a2fcfc",
                "boundaryNum": 95,
                "name": "VISHNU GARDEN",
                "localname": "VISHNU GARDEN",
                "longitude": 77.065,
                "latitude": 28.63,
                "label": "Block",
                "code": "WARD95",
                "children": []
              },
              {
                "id": "85d0ac1c-95dd-4bc6-a0e3-a204135db6d3",
                "boundaryNum": 96,
                "name": "RAJOURI GARDEN",
                "localname": "RAJOURI GARDEN",
                "longitude": 77.0983,
                "latitude": 28.6417,
                "label": "Block",
                "code": "WARD96",
                "children": []
              },
              {
                "id": "019d9214-1e75-4ef9-9ec8-154d8184cfb0",
                "boundaryNum": 97,
                "name": "CHAUKHANDI NAGAR",
                "localname": "CHAUKHANDI NAGAR",
                "longitude": 77.1403,
                "latitude": 28.6483,
                "label": "Block",
                "code": "WARD97",
                "children": []
              },
              {
                "id": "c8d7386a-67d9-4634-af4a-09989f8117e5",
                "boundaryNum": 98,
                "name": "SUBHASH NAGAR",
                "localname": "SUBHASH NAGAR",
                "longitude": 77.0845,
                "latitude": 28.639,
                "label": "Block",
                "code": "WARD98",
                "children": []
              },
              {
                "id": "3d877ac8-1207-40d0-a26d-077992e3a817",
                "boundaryNum": 99,
                "name": "HARINAGAR",
                "localname": "HARINAGAR",
                "longitude": 77.1,
                "latitude": 28.6254,
                "label": "Block",
                "code": "WARD99",
                "children": []
              },
              {
                "id": "7c2521b3-3746-47d8-ae77-e7473fbe8dd7",
                "boundaryNum": 100,
                "name": "FATEH NAGAR",
                "localname": "FATEH NAGAR",
                "longitude": 77.091,
                "latitude": 28.6265,
                "label": "Block",
                "code": "WARD100",
                "children": []
              },
              {
                "id": "e0c9111f-1ce1-40f2-9c11-557485efff0e",
                "boundaryNum": 101,
                "name": "TILAK NAGAR",
                "localname": "TILAK NAGAR",
                "longitude": 77.099,
                "latitude": 28.6425,
                "label": "Block",
                "code": "WARD101",
                "children": []
              },
              {
                "id": "a1eac6f2-5a25-4de5-8963-68a42bcc0ee7",
                "boundaryNum": 102,
                "name": "KHYALA",
                "localname": "KHYALA",
                "longitude": 77.0969,
                "latitude": 28.6573,
                "label": "Block",
                "code": "WARD102",
                "children": []
              },
              {
                "id": "f3553d73-4b32-49ca-a518-bb6cc1413d1a",
                "boundaryNum": 103,
                "name": "KESHO PUR",
                "localname": "KESHO PUR",
                "longitude": 77.079,
                "latitude": 28.638,
                "label": "Block",
                "code": "WARD103",
                "children": []
              },
              {
                "id": "be883941-6df8-4a8d-b150-5c5b40d3a85b",
                "boundaryNum": 104,
                "name": "JANAK PURI(SOUTH)",
                "localname": "JANAK PURI(SOUTH)",
                "longitude": 77.067,
                "latitude": 28.621,
                "label": "Block",
                "code": "WARD104",
                "children": []
              },
              {
                "id": "23e02477-5de1-4486-bb6d-e837d2ac4916",
                "boundaryNum": 105,
                "name": "MAHAVEER ENCLAVE",
                "localname": "MAHAVEER ENCLAVE",
                "longitude": 77.046,
                "latitude": 28.627,
                "label": "Block",
                "code": "WARD105",
                "children": []
              },
              {
                "id": "ad39edee-4231-4089-9c04-3854877d3d84",
                "boundaryNum": 106,
                "name": "JANAK PURI (WEST)",
                "localname": "JANAK PURI (WEST)",
                "longitude": 77.086,
                "latitude": 28.622,
                "label": "Block",
                "code": "WARD106",
                "children": []
              },
              {
                "id": "c9e9ba64-c85e-4440-9632-c23945fca0b6",
                "boundaryNum": 107,
                "name": "VIKAS PURI",
                "localname": "VIKAS PURI",
                "longitude": 77.075,
                "latitude": 28.631,
                "label": "Block",
                "code": "WARD107",
                "children": []
              },
              {
                "id": "13879f6d-29d7-4ffa-bdd7-bbcccb05056a",
                "boundaryNum": 108,
                "name": "HASTSAL",
                "localname": "HASTSAL",
                "longitude": 77.1403,
                "latitude": 28.6483,
                "label": "Block",
                "code": "WARD108",
                "children": []
              },
              {
                "id": "cf9f3c85-bc03-4e96-a1a8-0dcbef62a3d4",
                "boundaryNum": 109,
                "name": "VIKAS NAGAR",
                "localname": "VIKAS NAGAR",
                "longitude": 77.09,
                "latitude": 28.6328,
                "label": "Block",
                "code": "WARD109",
                "children": []
              },
              {
                "id": "3a17cf4f-6ba4-48d3-97ef-6be1f8860320",
                "boundaryNum": 110,
                "name": "KANWAR SINGH NAGAR",
                "localname": "KANWAR SINGH NAGAR",
                "longitude": 77.0363,
                "latitude": 28.6547,
                "label": "Block",
                "code": "WARD110",
                "children": []
              },
              {
                "id": "d474438e-c9a0-4af2-8d43-7aac56b55b58",
                "boundaryNum": 111,
                "name": "BAPROLA",
                "localname": "BAPROLA",
                "longitude": 77.031,
                "latitude": 28.6085,
                "label": "Block",
                "code": "WARD111",
                "children": []
              },
              {
                "id": "97f9d4a0-fd44-40cc-b717-58b229599d3b",
                "boundaryNum": 112,
                "name": "SAINIK ENCLAVE",
                "localname": "SAINIK ENCLAVE",
                "longitude": 77.049,
                "latitude": 28.636,
                "label": "Block",
                "code": "WARD112",
                "children": []
              },
              {
                "id": "27dae357-7658-4da8-addb-b51d690fd6bb",
                "boundaryNum": 113,
                "name": "MOHAN GARDEN",
                "localname": "MOHAN GARDEN",
                "longitude": 77.048,
                "latitude": 28.629,
                "label": "Block",
                "code": "WARD113",
                "children": []
              },
              {
                "id": "9a38aee9-31fb-490f-b59b-373196796592",
                "boundaryNum": 114,
                "name": "NAWADA",
                "localname": "NAWADA",
                "longitude": 77.039,
                "latitude": 28.624,
                "label": "Block",
                "code": "WARD114",
                "children": []
              },